{"business_id": "pDA8NJUwGl1IoLDeaVfo0Q", "name": "AMC Ridge Park Square Cinema 8", "address": "4788 Ridge Rd", "city": "Brooklyn", "state": "OH", "postal_code": "44144", "latitude": 41.4269133, "longitude": -81.737635, "stars": 2.5, "review_count": 7, "is_open": 0, "attributes": {"GoodForKids": "True"}, "categories": "Cinema, Arts & Entertainment", "hours": null}
{"business_id": "o10lLECt1MCYhOkdmXMvjA", "name": "Pet Supplies Plus", "address": "4808 Ridge Rd", "city": "Brooklyn", "state": "OH", "postal_code": "44144", "latitude": 41.424397, "longitude": -81.73531, "stars": 3.5, "review_count": 6, "is_open": 1, "attributes": null, "categories": "Pets, Pet Stores, Pet Groomers, Pet Services", "hours": {"Monday": "9:0-21:0", "Tuesday": "9:0-21:0", "Wednesday": "9:0-21:0", "Thursday": "9:0-21:0", "Friday": "9:0-21:0", "Saturday": "9:0-21:0", "Sunday": "10:0-18:0"}}
{"business_id": "TR5UXUUH0zs8OHDc-fGNsA", "name": "Penn Station East Coast Subs", "address": "4804 Ridge Rd", "city": "Brooklyn", "state": "OH", "postal_code": "44144", "latitude": 41.4244578, "longitude": -81.7354314, "stars": 4.0, "review_count": 18, "is_open": 1, "attributes": {"RestaurantsGoodForGroups": "True", "RestaurantsDelivery": "False", "Caters": "True", "RestaurantsTakeOut": "True", "OutdoorSeating": "False", "RestaurantsPriceRange2": "1", "RestaurantsAttire": "u'casual'", "Ambience": "{'romantic': False, 'intimate': False, 'touristy': False, 'hipster': False, 'divey': False, 'classy': False, 'trendy': False, 'upscale': False, 'casual': False}", "BikeParking": "True", "BusinessAcceptsCreditCards": "True", "BusinessParking": "{'garage': False, 'street': False, 'validated': False, 'lot': False, 'valet': False}", "HasTV": "True", "RestaurantsReservations": "False", "Alcohol": "u'none'", "NoiseLevel": "u'quiet'", "GoodForKids": "True"}, "categories": "Restaurants, Sandwiches, Cheesesteaks, Salad", "hours": {"Monday": "11:0-22:0", "Tuesday": "11:0-22:0", "Wednesday": "11:0-22:0", "Thursday": "11:0-22:0", "Friday": "11:0-22:0", "Saturday": "11:0-22:0", "Sunday": "11:15-21:0"}}
{"business_id": "p4mAL07lzH6AMIaujSfETg", "name": "Good Cents Grocery & More", "address": "4798 Ridge Rd", "city": "Brooklyn", "state": "OH", "postal_code": "44144", "latitude": 41.426265, "longitude": -81.73693, "stars": 3.5, "review_count": 3, "is_open": 0, "attributes": {"BikeParking": "False", "BusinessAcceptsCreditCards": "True", "RestaurantsPriceRange2": "1", "BusinessParking": "{'garage': False, 'street': False, 'validated': False, 'lot': True, 'valet': False}"}, "categories": "Food, Grocery", "hours": {"Monday": "8:0-22:0", "Tuesday": "8:0-22:0", "Wednesday": "8:0-22:0", "Thursday": "8:0-22:0", "Friday": "8:0-22:0", "Saturday": "8:0-22:0", "Sunday": "8:0-20:0"}}
{"business_id": "rDdEdej2RPjTopI3Qro5XQ", "name": "Visionworks", "address": "4730 Ridge Rd", "city": "Brooklyn", "state": "OH", "postal_code": "44144", "latitude": 41.424292501, "longitude": -81.735568279, "stars": 4.0, "review_count": 4, "is_open": 1, "attributes": {"ByAppointmentOnly": "False", "BusinessParking": "{'garage': False, 'street': False, 'validated': False, 'lot': False, 'valet': False}", "BusinessAcceptsCreditCards": "True", "RestaurantsPriceRange2": "2"}, "categories": "Eyewear & Opticians, Health & Medical, Shopping, Optometrists", "hours": {"Monday": "10:0-19:0", "Tuesday": "10:0-19:0", "Wednesday": "10:0-19:0", "Thursday": "10:0-19:0", "Friday": "10:0-19:0", "Saturday": "10:0-19:0", "Sunday": "12:0-17:0"}}
{"business_id": "C0i1vWllFvYjcqvbI66JKA", "name": "Marc's Stores", "address": "7359 Northcliff Ave", "city": "Brooklyn", "state": "OH", "postal_code": "44144", "latitude": 41.423152, "longitude": -81.7393443, "stars": 3.0, "review_count": 7, "is_open": 1, "attributes": {"WheelchairAccessible": "True", "DogsAllowed": "False", "RestaurantsPriceRange2": "1", "BusinessAcceptsBitcoin": "False", "RestaurantsTakeOut": "False", "Caters": "False", "AcceptsInsurance": "True", "BusinessAcceptsCreditCards": "True", "BikeParking": "False", "ByAppointmentOnly": "False", "BusinessParking": "{'garage': False, 'street': False, 'validated': False, 'lot': True, 'valet': False}"}, "categories": "Drugstores, Food, Grocery, Discount Store, Fruits & Veggies, Specialty Food, Pharmacy, Shopping, Department Stores, Fashion, Health & Medical", "hours": {"Monday": "7:0-21:0", "Tuesday": "7:0-21:0", "Wednesday": "7:0-21:0", "Thursday": "7:0-21:0", "Friday": "7:0-21:0", "Saturday": "7:0-21:0", "Sunday": "7:0-19:0"}}
{"business_id": "flcLCfKlXR_2QLeWp5J_WA", "name": "Mr Hero", "address": "4750 Ridge Rd", "city": "Brooklyn", "state": "OH", "postal_code": "44144", "latitude": 41.4255473, "longitude": -81.7352149, "stars": 3.0, "review_count": 6, "is_open": 1, "attributes": {"RestaurantsGoodForGroups": "True", "RestaurantsPriceRange2": "1", "Alcohol": "u'none'", "BusinessAcceptsCreditCards": "True", "GoodForKids": "True", "NoiseLevel": "u'quiet'", "RestaurantsDelivery": "True", "HasTV": "True", "OutdoorSeating": "False", "Ambience": "{'romantic': False, 'intimate': False, 'touristy': False, 'hipster': False, 'divey': False, 'classy': False, 'trendy': False, 'upscale': False, 'casual': False}", "WiFi": "u'no'", "RestaurantsAttire": "u'casual'", "RestaurantsTakeOut": "True", "Caters": "True", "RestaurantsReservations": "False", "BusinessParking": "{'garage': False, 'street': False, 'validated': False, 'lot': True, 'valet': False}"}, "categories": "Sandwiches, Restaurants", "hours": {"Monday": "10:30-22:0", "Tuesday": "10:30-22:0", "Wednesday": "10:30-22:0", "Thursday": "10:30-22:0", "Friday": "10:30-22:0", "Saturday": "10:30-22:0", "Sunday": "11:0-22:0"}}
{"business_id": "o45msWITl1Cl4vsJFUPl9A", "name": "La Casa Tequila", "address": "5092 Tiedeman Rd", "city": "Brooklyn", "state": "OH", "postal_code": "44144", "latitude": 41.4230621799, "longitude": -81.7614391926, "stars": 3.5, "review_count": 25, "is_open": 1, "attributes": {"RestaurantsGoodForGroups": "True", "GoodForMeal": "{'dessert': False, 'latenight': False, 'lunch': False, 'dinner': False, 'brunch': False, 'breakfast': False}", "BusinessParking": "{'garage': False, 'street': False, 'validated': False, 'lot': True, 'valet': False}", "Ambience": "{'touristy': False, 'hipster': False, 'romantic': False, 'divey': False, 'intimate': False, 'trendy': False, 'upscale': False, 'classy': False, 'casual': False}", "GoodForKids": "True"}, "categories": "Cocktail Bars, Bars, Mexican, Nightlife, Seafood, Restaurants", "hours": {"Monday": "11:0-22:0", "Tuesday": "11:0-22:0", "Wednesday": "11:0-22:0", "Thursday": "11:0-22:0", "Friday": "11:0-22:30", "Saturday": "11:30-22:30", "Sunday": "12:0-21:0"}}
{"business_id": "PJ8VJqsTdJno0beARzaTrQ", "name": "Kintaro Sushi & Hot Pot", "address": "7325 Northcliff Ave", "city": "Brooklyn", "state": "OH", "postal_code": "44144", "latitude": 41.4246403, "longitude": -81.7360534, "stars": 4.0, "review_count": 164, "is_open": 1, "attributes": {"GoodForKids": "True", "Caters": "True", "GoodForMeal": "{'dessert': False, 'latenight': False, 'lunch': True, 'dinner': True, 'brunch': False, 'breakfast': False}", "Alcohol": "u'full_bar'", "WheelchairAccessible": "True", "Ambience": "{'touristy': False, 'hipster': False, 'romantic': False, 'divey': False, 'intimate': False, 'trendy': False, 'upscale': False, 'classy': False, 'casual': True}", "OutdoorSeating": "False", "HasTV": "True", "NoiseLevel": "u'average'", "RestaurantsAttire": "'casual'", "RestaurantsTakeOut": "True", "BusinessAcceptsBitcoin": "False", "BikeParking": "False", "BusinessParking": "{'garage': False, 'street': False, 'validated': False, 'lot': True, 'valet': False}", "RestaurantsDelivery": "False", "RestaurantsPriceRange2": "2", "WiFi": "u'free'", "DogsAllowed": "False", "RestaurantsGoodForGroups": "True", "BusinessAcceptsCreditCards": "True", "RestaurantsReservations": "True", "RestaurantsTableService": "True"}, "categories": "Japanese, Asian Fusion, Hot Pot, Sushi Bars, Restaurants", "hours": {"Monday": "16:0-22:0", "Tuesday": "16:0-22:0", "Wednesday": "16:0-22:0", "Thursday": "16:0-22:0", "Friday": "11:0-23:0", "Saturday": "11:0-23:0", "Sunday": "11:0-22:0"}}
{"business_id": "Zr4VFz5dRVlc8dbn2JjNww", "name": "Plaza Grande", "address": "7106 Biddulph Rd", "city": "Brooklyn", "state": "OH", "postal_code": "44144", "latitude": 41.4308899681, "longitude": -81.7335370928, "stars": 2.5, "review_count": 23, "is_open": 0, "attributes": {"RestaurantsDelivery": "False", "Ambience": "{'touristy': False, 'hipster': False, 'romantic': False, 'divey': False, 'intimate': False, 'trendy': False, 'upscale': False, 'classy': False, 'casual': True}", "GoodForMeal": "{'dessert': False, 'latenight': False, 'lunch': False, 'dinner': False, 'brunch': False, 'breakfast': False}", "BusinessParking": "{'garage': False, 'street': False, 'validated': False, 'lot': False, 'valet': False}", "Alcohol": "u'full_bar'", "RestaurantsPriceRange2": "2", "RestaurantsAttire": "u'casual'", "RestaurantsTakeOut": "True", "GoodForKids": "True", "RestaurantsGoodForGroups": "True", "RestaurantsTableService": "True", "BusinessAcceptsCreditCards": "True", "OutdoorSeating": "True", "NoiseLevel": "u'average'", "HasTV": "True"}, "categories": "Restaurants, Mexican", "hours": {"Monday": "11:0-21:30", "Tuesday": "11:0-21:30", "Wednesday": "11:0-21:30", "Thursday": "11:0-21:30", "Friday": "11:30-22:30", "Saturday": "11:30-22:30", "Sunday": "11:30-21:0"}}
{"business_id": "Y8bxWvchCU5GBgj2iCbOQw", "name": "Monro Muffler Brake & Service", "address": "5148 Ridge Rd", "city": "Brooklyn", "state": "OH", "postal_code": "44129", "latitude": 41.4195758613, "longitude": -81.7349083722, "stars": 3.0, "review_count": 6, "is_open": 1, "attributes": null, "categories": "Automotive, Auto Repair, Tires, Oil Change Stations", "hours": {"Monday": "7:30-19:0", "Tuesday": "7:30-19:0", "Wednesday": "7:30-19:0", "Thursday": "7:30-19:0", "Friday": "7:30-19:0", "Saturday": "7:30-18:0", "Sunday": "9:0-17:0"}}
{"business_id": "Ma_jYcmBXWH4DClYNoWJSQ", "name": "Holstein Restaurant and Bar", "address": "233 Douglas Dr", "city": "Brooklyn", "state": "WI", "postal_code": "53521", "latitude": 42.8543014526, "longitude": -89.3666992188, "stars": 4.0, "review_count": 12, "is_open": 0, "attributes": {"WiFi": "u'free'", "BusinessAcceptsCreditCards": "True", "HasTV": "True", "Alcohol": "u'full_bar'", "BikeParking": "True", "Ambience": "{'romantic': False, 'intimate': False, 'touristy': False, 'hipster': False, 'divey': False, 'classy': False, 'trendy': False, 'upscale': False, 'casual': True}", "RestaurantsTakeOut": "True", "RestaurantsGoodForGroups": "True", "NoiseLevel": "u'average'", "Caters": "True", "RestaurantsDelivery": "False", "OutdoorSeating": "True", "RestaurantsAttire": "u'casual'", "RestaurantsPriceRange2": "1", "RestaurantsReservations": "True", "GoodForKids": "True", "BusinessParking": "{'garage': False, 'street': False, 'validated': False, 'lot': True, 'valet': False}"}, "categories": "Farmers Market, Restaurants, Comfort Food, Food, American (Traditional), Diners, American (New), Breakfast & Brunch", "hours": {"Monday": "8:0-14:0", "Wednesday": "8:0-14:0", "Thursday": "8:0-14:0", "Friday": "8:0-20:0", "Saturday": "8:0-14:0", "Sunday": "8:0-14:0"}}
{"business_id": "Hq8T6St2eNH-rCLj0RmiKQ", "name": "AMC Ridge Park Square 8", "address": "4788 Ridge Road", "city": "Brooklyn", "state": "OH", "postal_code": "44144", "latitude": 41.4269133, "longitude": -81.737635, "stars": 4.0, "review_count": 69, "is_open": 1, "attributes": {"GoodForKids": "True"}, "categories": "Arts & Entertainment, Cinema", "hours": null}
{"business_id": "8v66rFpXa87u2jRGOn8ZfA", "name": "TGI Fridays", "address": "10320 Cascade Xing", "city": "Brooklyn", "state": "OH", "postal_code": "44144", "latitude": 41.4246769, "longitude": -81.7594585, "stars": 2.5, "review_count": 48, "is_open": 1, "attributes": {"BusinessParking": "{'garage': False, 'street': False, 'validated': False, 'lot': True, 'valet': False}", "RestaurantsAttire": "u'casual'", "Alcohol": "u'full_bar'", "OutdoorSeating": "True", "BikeParking": "False", "RestaurantsDelivery": "False", "Caters": "False", "BusinessAcceptsCreditCards": "True", "Ambience": "{'romantic': False, 'intimate': False, 'classy': False, 'hipster': False, 'divey': False, 'touristy': False, 'trendy': False, 'upscale': False, 'casual': True}", "RestaurantsTakeOut": "True", "RestaurantsGoodForGroups": "True", "WiFi": "'free'", "GoodForKids": "True", "GoodForMeal": "{'dessert': False, 'latenight': False, 'lunch': True, 'dinner': True, 'brunch': False, 'breakfast': False}", "NoiseLevel": "u'average'", "RestaurantsPriceRange2": "2", "RestaurantsReservations": "True", "HasTV": "True"}, "categories": "Nightlife, Burgers, Italian, Restaurants, Bars, Fast Food, American (Traditional), American (New)", "hours": {"Monday": "11:0-1:0", "Tuesday": "11:0-1:0", "Wednesday": "11:0-1:0", "Thursday": "11:0-1:0", "Friday": "11:0-1:0", "Saturday": "11:0-1:0", "Sunday": "11:0-1:0"}}
{"business_id": "iIdPiYXAxQbEkgVNpKrQrQ", "name": "Ashley HomeStore", "address": "7349 Northcliff Ave", "city": "Brooklyn", "state": "OH", "postal_code": "44144", "latitude": 41.423093, "longitude": -81.738392, "stars": 2.5, "review_count": 21, "is_open": 1, "attributes": {"BusinessParking": "{'garage': False, 'street': False, 'validated': False, 'lot': True, 'valet': False}", "WheelchairAccessible": "True", "BusinessAcceptsCreditCards": "True", "RestaurantsPriceRange2": "2", "BikeParking": "True"}, "categories": "Furniture Stores, Shopping, Mattresses, Home Decor, Home & Garden", "hours": {"Monday": "10:0-21:0", "Tuesday": "10:0-21:0", "Wednesday": "10:0-21:0", "Thursday": "10:0-21:0", "Friday": "10:0-21:0", "Saturday": "10:0-21:0", "Sunday": "11:0-18:0"}}
{"business_id": "5BNkCBZ-zVYQ-4p8SFzpjA", "name": "Great Clips", "address": "7313 Northcliff Ave", "city": "Brooklyn", "state": "OH", "postal_code": "44144", "latitude": 41.4248013859, "longitude": -81.7352885753, "stars": 3.0, "review_count": 4, "is_open": 1, "attributes": {"RestaurantsPriceRange2": "1", "BusinessAcceptsCreditCards": "True", "BusinessParking": "{'garage': False, 'street': False, 'validated': False, 'lot': False, 'valet': False}", "BikeParking": "False", "GoodForKids": "True", "ByAppointmentOnly": "False"}, "categories": "Beauty & Spas, Hair Stylists, Hair Salons", "hours": {"Monday": "9:0-21:0", "Tuesday": "9:0-21:0", "Wednesday": "9:0-21:0", "Thursday": "9:0-21:0", "Friday": "9:0-21:0", "Saturday": "8:0-18:0", "Sunday": "9:0-17:0"}}
{"business_id": "WYwvHYGE3MpDEglgDgFIxA", "name": "Biddulph Family Dental", "address": "4647 Ridge Rd", "city": "Brooklyn", "state": "OH", "postal_code": "44144", "latitude": 41.430169, "longitude": -81.73483, "stars": 3.5, "review_count": 3, "is_open": 1, "attributes": null, "categories": "General Dentistry, Dentists, Prosthodontists, Cosmetic Dentists, Oral Surgeons, Health & Medical, Periodontists", "hours": {"Monday": "9:0-17:30", "Tuesday": "10:0-19:0", "Wednesday": "9:0-17:30", "Thursday": "9:0-17:0", "Friday": "9:0-14:0"}}
{"business_id": "M0DGBDhD7KlEj32q1NqHhA", "name": "Kronheim's Furniture", "address": "8888 Brookpark Rd", "city": "Brooklyn", "state": "OH", "postal_code": "44129", "latitude": 41.4199796, "longitude": -81.747543, "stars": 2.0, "review_count": 9, "is_open": 1, "attributes": {"BikeParking": "True", "BusinessParking": "{'garage': False, 'street': False, 'validated': False, 'lot': False, 'valet': False}", "BusinessAcceptsCreditCards": "True", "RestaurantsPriceRange2": "2"}, "categories": "Mattresses, Home & Garden, Shopping, Furniture Stores, Home Decor", "hours": {"Monday": "10:0-21:0", "Tuesday": "10:0-21:0", "Wednesday": "10:0-21:0", "Thursday": "10:0-21:0", "Friday": "10:0-21:0", "Saturday": "10:0-20:0", "Sunday": "11:0-18:0"}}
{"business_id": "Rii85bzYKGC9P0zOyAem6A", "name": "Texas Roadhouse", "address": "7341 Northcliff Ave", "city": "Brooklyn", "state": "OH", "postal_code": "44144", "latitude": 41.4246092, "longitude": -81.7383189, "stars": 3.5, "review_count": 95, "is_open": 1, "attributes": {"Ambience": "{'romantic': False, 'intimate': False, 'touristy': False, 'hipster': False, 'divey': False, 'classy': False, 'trendy': False, 'upscale': False, 'casual': True}", "BikeParking": "False", "HasTV": "True", "BusinessParking": "{'garage': False, 'street': False, 'validated': False, 'lot': True, 'valet': False}", "RestaurantsAttire": "u'casual'", "RestaurantsGoodForGroups": "True", "WiFi": "'no'", "RestaurantsDelivery": "False", "NoiseLevel": "u'loud'", "GoodForMeal": "{'dessert': False, 'latenight': False, 'lunch': False, 'dinner': True, 'brunch': False, 'breakfast': False}", "RestaurantsReservations": "False", "Alcohol": "u'full_bar'", "OutdoorSeating": "False", "RestaurantsTakeOut": "True", "Caters": "False", "RestaurantsPriceRange2": "2", "GoodForKids": "True", "BusinessAcceptsCreditCards": "True"}, "categories": "Steakhouses, Restaurants, American (Traditional), Barbeque", "hours": {"Monday": "16:0-22:0", "Tuesday": "16:0-22:0", "Wednesday": "16:0-22:0", "Thursday": "16:0-22:0", "Friday": "16:0-23:0", "Saturday": "11:30-23:0", "Sunday": "11:30-23:0"}}
{"business_id": "D-IpRrZnBsTieFQHrVgY_g", "name": "Sprint Store", "address": "4744 Ridge Rd", "city": "Brooklyn", "state": "OH", "postal_code": "44144", "latitude": 41.4255039, "longitude": -81.7350827157, "stars": 1.0, "review_count": 12, "is_open": 1, "attributes": {"BusinessAcceptsCreditCards": "True", "BusinessParking": "{'garage': False, 'street': False, 'validated': False, 'lot': False, 'valet': False}", "RestaurantsPriceRange2": "3", "BikeParking": "True"}, "categories": "Mobile Phone Accessories, IT Services & Computer Repair, Electronics, Mobile Phones, Local Services, Telecommunications, Shopping", "hours": {"Monday": "10:0-20:0", "Tuesday": "10:0-20:0", "Wednesday": "10:0-20:0", "Thursday": "10:0-20:0", "Friday": "10:0-20:0", "Saturday": "10:0-20:0", "Sunday": "11:0-17:0"}}
{"business_id": "bKMuSNldOu4tptaN0vMpQA", "name": "Bashour Fadi MD", "address": "7575 Northcliff Ave Ofc", "city": "Brooklyn", "state": "OH", "postal_code": "44144", "latitude": 41.4468428183, "longitude": -81.7532724676, "stars": 2.5, "review_count": 3, "is_open": 1, "attributes": null, "categories": "Obstetricians & Gynecologists, Doctors, Health & Medical", "hours": null}
{"business_id": "uOPzOiwkS_6w4txA7fYfeA", "name": "Skyline Chili", "address": "4752 Ridge Road", "city": "Brooklyn", "state": "OH", "postal_code": "44144", "latitude": 41.4253558, "longitude": -81.7352387, "stars": 4.0, "review_count": 85, "is_open": 1, "attributes": {"HasTV": "True", "RestaurantsReservations": "False", "OutdoorSeating": "False", "RestaurantsDelivery": "False", "RestaurantsPriceRange2": "1", "Caters": "False", "Alcohol": "u'none'", "GoodForMeal": "{'dessert': False, 'latenight': False, 'lunch': True, 'dinner': True, 'brunch': False, 'breakfast': False}", "WiFi": "'free'", "RestaurantsAttire": "u'casual'", "NoiseLevel": "u'average'", "GoodForKids": "True", "BusinessAcceptsCreditCards": "True", "RestaurantsTakeOut": "True", "RestaurantsTableService": "False", "RestaurantsGoodForGroups": "True", "DriveThru": "False", "BusinessParking": "{'garage': False, 'street': False, 'validated': False, 'lot': True, 'valet': False}", "BikeParking": "False", "Ambience": "{'romantic': False, 'intimate': False, 'touristy': False, 'hipster': False, 'divey': False, 'classy': False, 'trendy': False, 'upscale': False, 'casual': True}"}, "categories": "American (Traditional), Fast Food, Restaurants, Hot Dogs", "hours": {"Monday": "10:0-22:0", "Tuesday": "10:0-22:0", "Wednesday": "10:0-22:0", "Thursday": "10:0-22:0", "Friday": "10:0-22:0", "Saturday": "10:0-22:0", "Sunday": "10:0-22:0"}}
{"business_id": "mUMb6sxFa9JZYQbI9RDs0Q", "name": "Applebee's Grill + Bar", "address": "4800 Ridge Rd - RPS", "city": "Brooklyn", "state": "OH", "postal_code": "44144", "latitude": 41.424583, "longitude": -81.7353018, "stars": 3.5, "review_count": 18, "is_open": 1, "attributes": {"RestaurantsAttire": "u'casual'", "Ambience": "{'romantic': False, 'intimate': False, 'touristy': False, 'hipster': False, 'divey': False, 'classy': False, 'trendy': False, 'upscale': False, 'casual': False}", "RestaurantsTakeOut": "True", "Alcohol": "u'full_bar'", "BusinessAcceptsCreditCards": "True", "RestaurantsPriceRange2": "2", "RestaurantsGoodForGroups": "True", "GoodForKids": "True", "RestaurantsReservations": "True", "HasTV": "True", "BusinessParking": "{'garage': False, 'street': False, 'validated': False, 'lot': False, 'valet': False}", "DriveThru": "False", "NoiseLevel": "'average'", "RestaurantsDelivery": "False", "GoodForMeal": "{'dessert': False, 'latenight': False, 'lunch': True, 'dinner': False, 'brunch': False, 'breakfast': False}", "HappyHour": "True", "WiFi": "'free'", "Music": "{'dj': False, 'background_music': False, 'no_music': False, 'jukebox': False, 'live': False, 'video': False, 'karaoke': False}", "BikeParking": "True", "OutdoorSeating": "False", "RestaurantsTableService": "True"}, "categories": "Nightlife, American (Traditional), Steakhouses, Sports Bars, Burgers, Bars, Restaurants", "hours": {"Monday": "11:0-0:0", "Tuesday": "11:0-0:0", "Wednesday": "11:0-0:0", "Thursday": "11:0-0:0", "Friday": "11:0-1:0", "Saturday": "11:0-1:0", "Sunday": "11:0-0:0"}}
{"business_id": "PZuxcxJW1y4-epEbfPh2QA", "name": "Three Brothers Pizza", "address": "233 Douglas Dr", "city": "Brooklyn", "state": "WI", "postal_code": "53521", "latitude": 42.8588428, "longitude": -89.3691589, "stars": 4.5, "review_count": 5, "is_open": 0, "attributes": {"HasTV": "True", "RestaurantsTakeOut": "True", "Alcohol": "u'beer_and_wine'", "WheelchairAccessible": "True", "BusinessAcceptsCreditCards": "True", "OutdoorSeating": "False", "WiFi": "u'free'", "RestaurantsDelivery": "True", "BikeParking": "True", "Caters": "True", "GoodForKids": "True", "RestaurantsPriceRange2": "2", "RestaurantsReservations": "True", "RestaurantsGoodForGroups": "True", "RestaurantsAttire": "'casual'", "RestaurantsTableService": "True", "Ambience": "{'touristy': False, 'hipster': False, 'romantic': False, 'divey': False, 'intimate': False, 'trendy': False, 'upscale': False, 'classy': False, 'casual': False}"}, "categories": "Pizza, Breakfast & Brunch, Restaurants", "hours": {"Monday": "7:0-21:0", "Tuesday": "7:0-21:0", "Wednesday": "7:0-21:0", "Thursday": "7:0-21:0", "Friday": "7:0-21:0", "Saturday": "7:0-21:0", "Sunday": "7:0-16:0"}}
{"business_id": "3Ru4sC1V9PB1ezIqvt9Isg", "name": "Hooley House Brooklyn", "address": "10310 Cascade Crossing", "city": "Brooklyn", "state": "OH", "postal_code": "44144", "latitude": 41.4248679, "longitude": -81.758466, "stars": 3.0, "review_count": 72, "is_open": 1, "attributes": {"BusinessParking": "{'garage': False, 'street': False, 'validated': False, 'lot': True, 'valet': False}", "BestNights": "{'monday': False, 'tuesday': True, 'friday': False, 'wednesday': True, 'thursday': False, 'sunday': False, 'saturday': True}", "RestaurantsDelivery": "False", "Alcohol": "u'full_bar'", "HasTV": "True", "Ambience": "{'romantic': False, 'intimate': False, 'touristy': False, 'upscale': False, 'divey': False, 'classy': False, 'trendy': False, 'hipster': False, 'casual': True}", "OutdoorSeating": "True", "GoodForMeal": "{'dessert': False, 'latenight': False, 'lunch': True, 'dinner': True, 'brunch': False, 'breakfast': False}", "GoodForDancing": "False", "GoodForKids": "True", "BusinessAcceptsCreditCards": "True", "BikeParking": "True", "Caters": "True", "RestaurantsGoodForGroups": "True", "RestaurantsTakeOut": "True", "RestaurantsPriceRange2": "2", "RestaurantsAttire": "u'casual'", "NoiseLevel": "u'loud'", "RestaurantsReservations": "False", "WiFi": "u'free'"}, "categories": "Nightlife, Restaurants, Bars, Pubs, Irish", "hours": {"Monday": "0:0-0:0", "Tuesday": "11:0-0:0", "Wednesday": "11:0-0:0", "Thursday": "11:0-2:0", "Friday": "11:0-2:0", "Saturday": "11:0-2:0", "Sunday": "11:0-0:0"}}
{"business_id": "8XplB7k3ktoWLZbRHjN66Q", "name": "Pizza Hut", "address": "7002 Biddulph Rd", "city": "Brooklyn", "state": "OH", "postal_code": "44144", "latitude": 41.4312287, "longitude": -81.7341243, "stars": 1.0, "review_count": 10, "is_open": 1, "attributes": {"RestaurantsPriceRange2": "1", "BusinessParking": "{'garage': False, 'street': False, 'validated': False, 'lot': False, 'valet': False}", "RestaurantsAttire": "u'casual'", "RestaurantsDelivery": "True", "RestaurantsGoodForGroups": "False", "Ambience": "{'romantic': False, 'intimate': False, 'classy': False, 'hipster': False, 'divey': False, 'touristy': False, 'trendy': False, 'upscale': False, 'casual': False}", "GoodForKids": "True", "RestaurantsTakeOut": "True", "NoiseLevel": "u'average'", "BusinessAcceptsCreditCards": "True", "GoodForMeal": "{'dessert': False, 'latenight': False, 'lunch': False, 'dinner': False, 'brunch': False, 'breakfast': False}"}, "categories": "Italian, Restaurants, Pizza, Chicken Wings", "hours": null}
{"business_id": "R42oS84-3wsOWFrcpaZwhg", "name": "Therapeutic Touch", "address": "8475 Memphis Ave, Ste A", "city": "Brooklyn", "state": "OH", "postal_code": "44144", "latitude": 41.4396577, "longitude": -81.7438265, "stars": 4.5, "review_count": 4, "is_open": 1, "attributes": {"RestaurantsPriceRange2": "2", "BusinessAcceptsCreditCards": "True", "BusinessParking": "{'garage': False, 'street': False, 'validated': False, 'lot': True, 'valet': False}", "ByAppointmentOnly": "True", "BikeParking": "True"}, "categories": "Health & Medical, Beauty & Spas, Day Spas, Massage, Skin Care, Massage Therapy", "hours": {"Monday": "0:0-0:0", "Tuesday": "9:30-19:0", "Wednesday": "9:30-20:0", "Thursday": "9:30-0:0", "Friday": "9:0-17:0", "Saturday": "9:0-15:0"}}
{"business_id": "9_UHuIMHDjrxuh2qlHS-UA", "name": "Aldo's Restaurant", "address": "8459 Memphis Ave", "city": "Brooklyn", "state": "OH", "postal_code": "44144", "latitude": 41.4396321, "longitude": -81.743519, "stars": 4.5, "review_count": 88, "is_open": 1, "attributes": {"RestaurantsTakeOut": "True", "OutdoorSeating": "False", "Alcohol": "u'beer_and_wine'", "BusinessParking": "{'garage': False, 'street': False, 'validated': False, 'lot': True, 'valet': False}", "HasTV": "False", "BusinessAcceptsCreditCards": "True", "GoodForKids": "True", "Caters": "False", "RestaurantsPriceRange2": "2", "WiFi": "u'no'", "RestaurantsDelivery": "False", "NoiseLevel": "u'average'", "GoodForMeal": "{'dessert': False, 'latenight': False, 'lunch': False, 'dinner': True, 'brunch': False, 'breakfast': False}", "RestaurantsReservations": "True", "RestaurantsAttire": "'casual'", "RestaurantsTableService": "True", "BikeParking": "False", "RestaurantsGoodForGroups": "False", "Ambience": "{'touristy': False, 'hipster': False, 'romantic': False, 'divey': False, 'intimate': False, 'trendy': False, 'upscale': False, 'classy': False, 'casual': True}"}, "categories": "Italian, Restaurants", "hours": {"Tuesday": "16:0-21:30", "Wednesday": "11:30-22:0", "Thursday": "11:30-22:0", "Friday": "11:30-22:0", "Saturday": "16:0-23:0", "Sunday": "16:0-21:0"}}
{"business_id": "h0r1AJiTJUP_W8qxeRBlYA", "name": "Starbucks", "address": "4746 Ridge Road", "city": "Brooklyn", "state": "OH", "postal_code": "44144", "latitude": 41.425397, "longitude": -81.734903, "stars": 3.5, "review_count": 32, "is_open": 1, "attributes": {"RestaurantsTakeOut": "True", "WiFi": "u'free'", "BusinessAcceptsCreditCards": "True", "OutdoorSeating": "False", "RestaurantsPriceRange2": "2", "Caters": "False", "BikeParking": "True", "BusinessParking": "{'garage': False, 'street': False, 'validated': False, 'lot': False, 'valet': False}"}, "categories": "Food, Restaurants, Coffee & Tea", "hours": {"Monday": "5:0-22:0", "Tuesday": "5:0-22:0", "Wednesday": "5:0-22:0", "Thursday": "5:0-23:0", "Friday": "5:0-23:0", "Saturday": "5:30-22:0", "Sunday": "5:0-22:0"}}
{"business_id": "FK9cF9H9pQs2WEBr0sqXoA", "name": "US Post Office", "address": "6200 Biddulph Rd", "city": "Brooklyn", "state": "OH", "postal_code": "44144", "latitude": 41.430766, "longitude": -81.7299929, "stars": 1.0, "review_count": 4, "is_open": 1, "attributes": null, "categories": "Public Services & Government, Post Offices", "hours": {"Monday": "8:30-17:0", "Tuesday": "8:30-17:0", "Wednesday": "8:30-17:0", "Thursday": "8:30-17:0", "Friday": "8:30-17:0", "Saturday": "9:0-12:0"}}
{"business_id": "exUYcSZauQ_0KLWt7WqQ_g", "name": "Bureau of Motor Vehicles", "address": "7000 Biddulph Rd", "city": "Brooklyn", "state": "OH", "postal_code": "44144", "latitude": 41.4312334, "longitude": -81.7340636, "stars": 4.0, "review_count": 9, "is_open": 1, "attributes": null, "categories": "Departments of Motor Vehicles, Public Services & Government", "hours": {"Monday": "8:0-18:0", "Tuesday": "8:0-17:0", "Wednesday": "8:0-17:0", "Thursday": "8:0-17:0", "Friday": "8:0-17:0", "Saturday": "8:0-15:0"}}
{"business_id": "BaHJtYIftsaTWJ1UTvJYhA", "name": "Extended Stay America - Cleveland - Brooklyn", "address": "10300 Cascade Crossing", "city": "Brooklyn", "state": "OH", "postal_code": "44144", "latitude": 41.4248303, "longitude": -81.7576265, "stars": 2.0, "review_count": 14, "is_open": 1, "attributes": {"WiFi": "u'free'", "BusinessAcceptsCreditCards": "True", "RestaurantsPriceRange2": "2"}, "categories": "Hotels & Travel, Hotels, Home Services, Apartments, Event Planning & Services, Real Estate", "hours": {"Monday": "0:0-0:0", "Tuesday": "0:0-0:0", "Wednesday": "0:0-0:0", "Thursday": "0:0-0:0", "Friday": "0:0-0:0", "Saturday": "0:0-0:0", "Sunday": "0:0-0:0"}}
{"business_id": "6xgauMxNUwAS31_hEDjhnA", "name": "Michaels", "address": "4798 Ridge Rd, Ste A", "city": "Brooklyn", "state": "OH", "postal_code": "44144", "latitude": 41.4262004, "longitude": -81.7361532, "stars": 4.0, "review_count": 4, "is_open": 1, "attributes": {"BusinessAcceptsCreditCards": "True", "RestaurantsPriceRange2": "2", "BusinessParking": "{'garage': False, 'street': True, 'validated': False, 'lot': True, 'valet': False}", "BikeParking": "False"}, "categories": "Hobby Shops, Arts & Entertainment, Knitting Supplies, Art Galleries, Shopping, Arts & Crafts", "hours": {"Monday": "9:0-18:0", "Tuesday": "9:0-21:0", "Wednesday": "9:0-18:0", "Thursday": "9:0-21:0", "Friday": "9:0-21:0", "Saturday": "9:0-21:0", "Sunday": "10:0-19:0"}}
{"business_id": "ZgCGgauP3q8ERmxB8MJ6Hg", "name": "Cold Stone Creamery", "address": "4826 Ridge Rd", "city": "Brooklyn", "state": "OH", "postal_code": "44144", "latitude": 41.4233394, "longitude": -81.7352233, "stars": 3.0, "review_count": 14, "is_open": 1, "attributes": {"BikeParking": "False", "RestaurantsPriceRange2": "2", "BusinessParking": "{'garage': False, 'street': False, 'validated': False, 'lot': True, 'valet': False}", "BusinessAcceptsCreditCards": "True", "RestaurantsTakeOut": "True"}, "categories": "Cupcakes, Ice Cream & Frozen Yogurt, Custom Cakes, Food", "hours": {"Monday": "11:30-21:30", "Tuesday": "11:30-21:30", "Wednesday": "11:30-21:30", "Thursday": "11:30-21:30", "Friday": "11:30-22:0", "Saturday": "11:30-22:0", "Sunday": "11:30-21:30"}}
{"business_id": "reH7Ez1m-hOJCmiV32-tFw", "name": "Panera Bread", "address": "5090 Tiedeman Rd", "city": "Brooklyn", "state": "OH", "postal_code": "44144", "latitude": 41.423111, "longitude": -81.760827, "stars": 3.0, "review_count": 22, "is_open": 1, "attributes": {"WiFi": "u'free'", "RestaurantsAttire": "u'casual'", "Ambience": "{'romantic': False, 'intimate': False, 'classy': False, 'hipster': False, 'divey': False, 'touristy': False, 'trendy': False, 'upscale': False, 'casual': True}", "RestaurantsDelivery": "False", "Alcohol": "u'none'", "RestaurantsTakeOut": "True", "BusinessParking": "{'garage': False, 'street': False, 'validated': False, 'lot': True, 'valet': False}", "RestaurantsPriceRange2": "1", "BikeParking": "True", "Caters": "True", "NoiseLevel": "u'average'", "HasTV": "False", "GoodForKids": "True", "RestaurantsGoodForGroups": "True", "RestaurantsReservations": "False", "OutdoorSeating": "True", "GoodForMeal": "{'dessert': False, 'latenight': False, 'lunch': True, 'dinner': False, 'brunch': False, 'breakfast': True}", "BusinessAcceptsCreditCards": "True"}, "categories": "Sandwiches, American (Traditional), Food, Restaurants, Soup, Breakfast & Brunch, Salad, Bagels", "hours": {"Monday": "6:30-21:0", "Tuesday": "6:30-21:0", "Wednesday": "6:30-21:0", "Thursday": "6:30-21:0", "Friday": "6:30-21:0", "Saturday": "6:30-21:0", "Sunday": "7:0-20:0"}}
{"business_id": "k6b_CaDrRyojK91f15EhUg", "name": "Menchies", "address": "4748 Ridge Rd", "city": "Brooklyn", "state": "OH", "postal_code": "44144", "latitude": 41.4253594, "longitude": -81.7350035, "stars": 4.0, "review_count": 16, "is_open": 1, "attributes": {"BusinessAcceptsCreditCards": "True", "BusinessParking": "{'garage': False, 'street': False, 'validated': False, 'lot': True, 'valet': False}", "RestaurantsPriceRange2": "1", "BikeParking": "True", "WiFi": "u'no'"}, "categories": "Food, Ice Cream & Frozen Yogurt", "hours": {"Monday": "12:0-21:0", "Tuesday": "12:0-21:0", "Wednesday": "12:0-21:0", "Thursday": "12:0-21:0", "Friday": "12:0-22:0", "Saturday": "12:0-22:0", "Sunday": "12:0-21:0"}}
{"business_id": "-5Kbw0m7lpLDAQSX5t-fVA", "name": "Williamsburg Smile Design", "address": "189 N 9th St", "city": "Brooklyn", "state": "NY", "postal_code": "11211", "latitude": 33.5847174, "longitude": -112.0624896, "stars": 3.0, "review_count": 85, "is_open": 1, "attributes": {"BusinessAcceptsCreditCards": "True", "ByAppointmentOnly": "True"}, "categories": "Cosmetic Dentists, Dentists, Orthodontists, General Dentistry, Health & Medical", "hours": {"Monday": "10:0-17:0", "Tuesday": "10:0-19:0", "Wednesday": "10:0-18:0", "Friday": "10:0-17:0", "Saturday": "10:0-16:0"}}
{"business_id": "f3WqmpmiDISgXWteu9mFNA", "name": "Plaza Nueva Mexican Grill", "address": "7106 Biddulph Rd", "city": "Brooklyn", "state": "OH", "postal_code": "44144", "latitude": 41.43102, "longitude": -81.734679, "stars": 4.0, "review_count": 15, "is_open": 1, "attributes": {"GoodForMeal": "{'dessert': False, 'latenight': False, 'lunch': False, 'dinner': False, 'brunch': False, 'breakfast': False}", "HasTV": "True", "Smoking": "u'outdoor'", "RestaurantsDelivery": "False", "WheelchairAccessible": "True", "RestaurantsAttire": "'casual'", "Ambience": "{'touristy': False, 'hipster': False, 'romantic': False, 'divey': False, 'intimate': False, 'trendy': False, 'upscale': False, 'classy': False, 'casual': False}", "GoodForKids": "True", "Alcohol": "u'full_bar'", "RestaurantsTableService": "True", "CoatCheck": "False", "RestaurantsGoodForGroups": "True", "WiFi": "u'free'", "RestaurantsPriceRange2": "2", "HappyHour": "True", "BusinessAcceptsCreditCards": "True", "RestaurantsReservations": "True", "BusinessParking": "{'garage': False, 'street': False, 'validated': False, 'lot': False, 'valet': False}", "GoodForDancing": "False", "OutdoorSeating": "True", "RestaurantsTakeOut": "True"}, "categories": "Mexican, Restaurants, Food, Nightlife, Bars, American (Traditional), Desserts", "hours": {"Monday": "0:0-0:0", "Tuesday": "11:0-21:30", "Wednesday": "11:0-21:30", "Thursday": "11:0-21:30", "Friday": "11:0-22:30", "Saturday": "11:0-22:30", "Sunday": "12:0-21:0"}}
{"business_id": "trZ9PBGPUil8NEAoFdb1rQ", "name": "McDonald's", "address": "10700 Brookpark Rd", "city": "Brooklyn", "state": "OH", "postal_code": "44130", "latitude": 41.4189079924, "longitude": -81.7589984742, "stars": 1.0, "review_count": 6, "is_open": 1, "attributes": {"GoodForKids": "True", "RestaurantsGoodForGroups": "True", "RestaurantsTakeOut": "True", "BusinessAcceptsCreditCards": "True", "HasTV": "True", "RestaurantsReservations": "False", "Caters": "False", "RestaurantsDelivery": "False", "BikeParking": "True", "RestaurantsPriceRange2": "1", "RestaurantsAttire": "'casual'"}, "categories": "Fast Food, Burgers, Restaurants, Coffee & Tea, Food", "hours": {"Monday": "5:0-23:0", "Tuesday": "5:0-23:0", "Wednesday": "5:0-23:0", "Thursday": "5:0-23:0", "Friday": "5:0-23:0", "Saturday": "5:0-23:0", "Sunday": "5:0-23:0"}}
{"business_id": "14AWgEFR1bFK8rEhJwIvFA", "name": "Steak \u2019n Shake", "address": "10330 Cascade Xing", "city": "Brooklyn", "state": "OH", "postal_code": "44144", "latitude": 41.4239524082, "longitude": -81.7598549277, "stars": 2.0, "review_count": 45, "is_open": 1, "attributes": {"WiFi": "'free'", "DriveThru": "True", "Ambience": "{'romantic': False, 'intimate': False, 'touristy': False, 'hipster': False, 'divey': False, 'classy': False, 'trendy': False, 'upscale': False, 'casual': True}", "HasTV": "False", "Alcohol": "u'none'", "NoiseLevel": "u'average'", "RestaurantsTakeOut": "True", "BusinessParking": "{'garage': False, 'street': False, 'validated': False, 'lot': True, 'valet': False}", "RestaurantsDelivery": "False", "GoodForKids": "True", "RestaurantsAttire": "u'casual'", "BikeParking": "False", "RestaurantsGoodForGroups": "True", "OutdoorSeating": "False", "GoodForMeal": "{'dessert': True, 'latenight': True, 'lunch': True, 'dinner': False, 'brunch': False, 'breakfast': False}", "RestaurantsReservations": "False", "Caters": "False", "BusinessAcceptsCreditCards": "True", "RestaurantsPriceRange2": "1"}, "categories": "Fast Food, British, Restaurants, American (Traditional), American (New), Breakfast & Brunch, Burgers, Diners", "hours": {"Monday": "0:0-0:0", "Tuesday": "0:0-0:0", "Wednesday": "0:0-0:0", "Thursday": "0:0-0:0", "Friday": "0:0-0:0", "Saturday": "0:0-0:0", "Sunday": "0:0-0:0"}}
{"business_id": "kkzmhC0MULVag0z50e6eGQ", "name": "Papa John's Pizza", "address": "4221 Fulton Rd", "city": "Brooklyn", "state": "OH", "postal_code": "44144", "latitude": 41.4416461, "longitude": -81.7227361, "stars": 3.0, "review_count": 4, "is_open": 1, "attributes": null, "categories": "Restaurants, Pizza", "hours": null}
{"business_id": "iOhHDavGdswJQlPW5luGaw", "name": "Golden Corral", "address": "8696 Brookpark Rd", "city": "Brooklyn", "state": "OH", "postal_code": "44129", "latitude": 41.419232, "longitude": -81.74614, "stars": 2.0, "review_count": 45, "is_open": 1, "attributes": {"RestaurantsReservations": "False", "RestaurantsGoodForGroups": "True", "Ambience": "{'romantic': False, 'intimate': False, 'classy': False, 'hipster': False, 'divey': False, 'touristy': False, 'trendy': False, 'upscale': False, 'casual': True}", "OutdoorSeating": "False", "NoiseLevel": "u'loud'", "RestaurantsTakeOut": "True", "RestaurantsDelivery": "False", "GoodForKids": "True", "BusinessAcceptsCreditCards": "True", "RestaurantsAttire": "u'casual'", "Caters": "False", "Alcohol": "u'none'", "BusinessParking": "{'garage': False, 'street': False, 'validated': False, 'lot': True, 'valet': False}", "HasTV": "False", "WiFi": "u'no'", "RestaurantsPriceRange2": "2", "BikeParking": "False"}, "categories": "Buffets, Restaurants", "hours": null}
{"business_id": "nbhaNTBkec-vSUrvje78lw", "name": "Steiny Jo's Bakery", "address": "109 Hotel St, Ste 3", "city": "Brooklyn", "state": "WI", "postal_code": "53521", "latitude": 42.853384, "longitude": -89.3686432, "stars": 4.5, "review_count": 3, "is_open": 0, "attributes": {"BusinessParking": "{'garage': False, 'street': False, 'validated': False, 'lot': False, 'valet': False}", "RestaurantsPriceRange2": "2", "BusinessAcceptsCreditCards": "True"}, "categories": "Bakeries, Food", "hours": null}
{"business_id": "3rbKAdOAB0ClCJUJWPw6Ig", "name": "TJ Maxx", "address": "4794 Ridge Rd", "city": "Brooklyn", "state": "OH", "postal_code": "44144", "latitude": 41.4263555, "longitude": -81.7377908, "stars": 3.0, "review_count": 9, "is_open": 1, "attributes": {"BikeParking": "True", "RestaurantsPriceRange2": "2", "BusinessAcceptsCreditCards": "True", "BusinessParking": "{'garage': False, 'street': False, 'validated': False, 'lot': True, 'valet': False}"}, "categories": "Fashion, Shopping, Department Stores", "hours": {"Monday": "9:30-21:30", "Tuesday": "9:30-21:30", "Wednesday": "9:30-21:30", "Thursday": "9:30-21:30", "Friday": "9:30-21:30", "Saturday": "9:30-21:0", "Sunday": "11:0-20:0"}}
{"business_id": "wy80nPpZndd_X6Taz34H5w", "name": "Today's Dentistry", "address": "4301 Ridge Rd", "city": "Brooklyn", "state": "OH", "postal_code": "44144", "latitude": 41.43948, "longitude": -81.7349179, "stars": 4.0, "review_count": 4, "is_open": 1, "attributes": {"ByAppointmentOnly": "True"}, "categories": "General Dentistry, Health & Medical, Dentists", "hours": {"Monday": "9:0-17:0", "Tuesday": "9:0-17:0", "Wednesday": "9:0-15:0", "Thursday": "14:0-19:0"}}
{"business_id": "66-KwrVLQonWugvwsgN-YA", "name": "Burger King", "address": "10260 Brookpark Rd", "city": "Brooklyn", "state": "OH", "postal_code": "44130", "latitude": 41.4188442291, "longitude": -81.7568759993, "stars": 3.5, "review_count": 6, "is_open": 1, "attributes": {"RestaurantsPriceRange2": "1", "OutdoorSeating": "False", "RestaurantsAttire": "u'casual'", "BusinessParking": "{'garage': False, 'street': False, 'validated': False, 'lot': False, 'valet': False}", "RestaurantsTakeOut": "True", "BusinessAcceptsCreditCards": "True", "RestaurantsGoodForGroups": "True", "RestaurantsDelivery": "False", "RestaurantsReservations": "False", "NoiseLevel": "'average'", "HasTV": "True", "GoodForKids": "True", "Caters": "False", "WiFi": "'free'", "Alcohol": "u'none'", "BikeParking": "True", "Ambience": "{'touristy': False, 'hipster': False, 'romantic': False, 'divey': False, 'intimate': False, 'trendy': False, 'upscale': False, 'classy': False, 'casual': True}"}, "categories": "Restaurants, Burgers, Fast Food", "hours": {"Monday": "6:0-0:0", "Tuesday": "6:0-0:0", "Wednesday": "6:0-0:0", "Thursday": "6:0-0:0", "Friday": "6:0-1:0", "Saturday": "6:0-1:0", "Sunday": "7:0-0:0"}}
{"business_id": "Vf-mInng89fh3cwk61x6AA", "name": "Geppetto's Pizza & Ribs", "address": "4312 Ridge Rd", "city": "Brooklyn", "state": "OH", "postal_code": "44144", "latitude": 41.4392476, "longitude": -81.7357927, "stars": 2.5, "review_count": 9, "is_open": 1, "attributes": {"BusinessParking": "{'garage': False, 'street': False, 'validated': False, 'lot': False, 'valet': False}", "RestaurantsAttire": "u'casual'", "RestaurantsDelivery": "True", "BusinessAcceptsCreditCards": "True", "WiFi": "u'no'", "RestaurantsPriceRange2": "1", "RestaurantsGoodForGroups": "False", "OutdoorSeating": "False", "Caters": "True", "GoodForKids": "False", "RestaurantsReservations": "False", "RestaurantsTakeOut": "True"}, "categories": "Restaurants, Pizza", "hours": {"Monday": "11:0-22:0", "Tuesday": "11:0-22:0", "Wednesday": "11:0-22:0", "Thursday": "11:0-22:0", "Friday": "10:30-23:0", "Saturday": "10:30-23:0", "Sunday": "11:0-22:0"}}
{"business_id": "G9nXLXhxqYFRD8kChMsYHg", "name": "Long John Silver's", "address": "10780 Brook Park Rd", "city": "Brooklyn", "state": "OH", "postal_code": "44130", "latitude": 41.4189906, "longitude": -81.759744, "stars": 3.0, "review_count": 12, "is_open": 1, "attributes": {"RestaurantsTableService": "False", "RestaurantsTakeOut": "True", "Caters": "False", "HasTV": "False", "BikeParking": "False", "Ambience": "{'romantic': False, 'intimate': False, 'touristy': False, 'hipster': False, 'divey': False, 'classy': False, 'trendy': False, 'upscale': False, 'casual': False}", "RestaurantsDelivery": "False", "BusinessParking": "{'garage': False, 'street': False, 'validated': False, 'lot': True, 'valet': False}", "OutdoorSeating": "False", "RestaurantsPriceRange2": "2", "Alcohol": "u'none'", "RestaurantsReservations": "False", "RestaurantsAttire": "u'casual'", "NoiseLevel": "u'quiet'", "GoodForKids": "True", "BusinessAcceptsCreditCards": "True", "WiFi": "u'no'", "RestaurantsGoodForGroups": "True", "GoodForMeal": "{'dessert': False, 'latenight': False, 'lunch': True, 'dinner': True, 'brunch': False, 'breakfast': False}"}, "categories": "Restaurants, Seafood, Fish & Chips, Fast Food", "hours": {"Monday": "10:30-22:0", "Tuesday": "10:30-22:0", "Wednesday": "10:30-22:0", "Thursday": "10:30-22:0", "Friday": "10:30-23:0", "Saturday": "10:30-23:0", "Sunday": "10:30-22:0"}}
{"business_id": "LWbseIiAK05joEl_CiJxRg", "name": "Terraces at Northridge", "address": "256 Northridge Oval", "city": "Brooklyn", "state": "OH", "postal_code": "44144", "latitude": 41.428197, "longitude": -81.7411817, "stars": 4.5, "review_count": 3, "is_open": 1, "attributes": {"BusinessAcceptsCreditCards": "True", "ByAppointmentOnly": "False", "WheelchairAccessible": "True", "BusinessAcceptsBitcoin": "False"}, "categories": "Home Services, Apartments, Real Estate", "hours": {"Monday": "0:0-0:0", "Tuesday": "8:30-17:0", "Wednesday": "8:30-17:0", "Thursday": "8:30-17:0", "Friday": "8:30-17:0", "Saturday": "22:0-4:0"}}
{"business_id": "3AIz59XitloJ_iEo0z5cSQ", "name": "Ridgepark Urgent Care", "address": "7580 Northcliff Ave, Ste 700", "city": "Brooklyn", "state": "OH", "postal_code": "44144", "latitude": 41.425675, "longitude": -81.7396606, "stars": 2.0, "review_count": 4, "is_open": 1, "attributes": {"ByAppointmentOnly": "False"}, "categories": "Health & Medical, Urgent Care", "hours": null}
{"business_id": "eemhTFXisN3M549JIOutNw", "name": "Caliber Custom Cabinetry", "address": "109 Hotel St, Ste 4", "city": "Brooklyn", "state": "WI", "postal_code": "53521", "latitude": 42.853384, "longitude": -89.3686432, "stars": 5.0, "review_count": 3, "is_open": 1, "attributes": {"ByAppointmentOnly": "True", "BusinessAcceptsCreditCards": "False", "RestaurantsPriceRange2": "2"}, "categories": "Home Services, Kitchen & Bath, Shopping, Home & Garden, Contractors, Cabinetry", "hours": {"Monday": "9:0-17:0", "Tuesday": "9:0-17:0", "Wednesday": "9:0-17:0", "Thursday": "9:0-17:0", "Friday": "9:0-17:0"}}
{"business_id": "unE9WMpMSp6-7SmBTMtRAQ", "name": "Gold's Gym", "address": "6700 Biddulph Rd", "city": "Brooklyn", "state": "OH", "postal_code": "44144", "latitude": 41.4316926027, "longitude": -81.7324616946, "stars": 4.0, "review_count": 9, "is_open": 1, "attributes": {"BikeParking": "True", "ByAppointmentOnly": "False", "BusinessParking": "{'garage': False, 'street': False, 'validated': False, 'lot': False, 'valet': False}", "BusinessAcceptsCreditCards": "True", "GoodForKids": "True"}, "categories": "Trainers, Yoga, Gyms, Fitness & Instruction, Active Life", "hours": {"Monday": "5:0-23:0", "Tuesday": "5:0-23:0", "Wednesday": "5:0-23:0", "Thursday": "5:0-23:0", "Friday": "5:0-23:0", "Saturday": "7:0-19:0", "Sunday": "7:0-19:0"}}
{"business_id": "uFqC_ZlwX7Mvgk7Lz_BCHA", "name": "Roosters", "address": "7106 Biddulph Rd.", "city": "Brooklyn", "state": "OH", "postal_code": "44144", "latitude": 41.431247, "longitude": -81.733837, "stars": 2.0, "review_count": 4, "is_open": 0, "attributes": {"RestaurantsDelivery": "False", "RestaurantsPriceRange2": "2", "BusinessAcceptsCreditCards": "True", "RestaurantsTakeOut": "True", "Alcohol": "u'full_bar'", "RestaurantsAttire": "u'casual'", "OutdoorSeating": "True", "GoodForKids": "True", "RestaurantsGoodForGroups": "True", "RestaurantsReservations": "False"}, "categories": "Restaurants, Chicken Wings", "hours": null}
{"business_id": "SXXdHFGoyN5KgMKj50AjyQ", "name": "Aspen Dental", "address": "7351 Northcliff Ave", "city": "Brooklyn", "state": "OH", "postal_code": "44144", "latitude": 41.4232118652, "longitude": -81.7387862245, "stars": 2.0, "review_count": 4, "is_open": 1, "attributes": {"ByAppointmentOnly": "True"}, "categories": "General Dentistry, Health & Medical, Oral Surgeons, Cosmetic Dentists, Dentists", "hours": {"Monday": "0:0-0:0", "Tuesday": "10:0-19:0", "Wednesday": "9:0-18:0", "Thursday": "9:0-18:0", "Friday": "8:0-17:0"}}
{"business_id": "yrwKibiXRrTUnGKj7io5ag", "name": "Hong Kong King Buffet", "address": "7325 NorthCliff Ave", "city": "Brooklyn", "state": "OH", "postal_code": "44144", "latitude": 41.424721, "longitude": -81.736211, "stars": 2.5, "review_count": 19, "is_open": 0, "attributes": {"BikeParking": "False", "Caters": "False", "Alcohol": "u'beer_and_wine'", "BusinessAcceptsCreditCards": "True", "RestaurantsAttire": "'casual'", "Ambience": "{'romantic': False, 'intimate': False, 'classy': False, 'hipster': False, 'divey': True, 'touristy': False, 'trendy': False, 'upscale': False, 'casual': False}", "HasTV": "False", "RestaurantsGoodForGroups": "True", "RestaurantsReservations": "False", "RestaurantsPriceRange2": "2", "NoiseLevel": "u'average'", "OutdoorSeating": "False", "GoodForKids": "True", "WiFi": "u'no'", "BusinessParking": "{'garage': False, 'street': False, 'validated': False, 'lot': True, 'valet': False}", "RestaurantsTakeOut": "True", "RestaurantsDelivery": "False"}, "categories": "Chinese, Buffets, Restaurants", "hours": {"Monday": "11:0-22:0", "Tuesday": "11:0-22:0", "Wednesday": "11:0-22:0", "Thursday": "11:0-22:0", "Friday": "11:0-23:0", "Saturday": "11:0-23:0", "Sunday": "11:0-22:0"}}
{"business_id": "6-PJtUAE81BiOSD385KQ9w", "name": "LA Fitness", "address": "5000 Tiedeman Rd", "city": "Brooklyn", "state": "OH", "postal_code": "44144", "latitude": 41.4244667, "longitude": -81.7628079, "stars": 3.0, "review_count": 31, "is_open": 1, "attributes": {"ByAppointmentOnly": "False", "BusinessAcceptsCreditCards": "True", "BikeParking": "True", "BusinessParking": "{'garage': False, 'street': False, 'validated': False, 'lot': False, 'valet': False}", "WheelchairAccessible": "True", "GoodForKids": "True"}, "categories": "Gyms, Sports Clubs, Active Life, Fitness & Instruction, Trainers, Yoga", "hours": {"Monday": "5:0-23:0", "Tuesday": "5:0-23:0", "Wednesday": "5:0-23:0", "Thursday": "5:0-23:0", "Friday": "5:0-22:0", "Saturday": "8:0-19:0", "Sunday": "8:0-19:0"}}
{"business_id": "CgijpaC_0YVv1hWG24fT-Q", "name": "The UPS Store", "address": "4758 Ridge Rd", "city": "Brooklyn", "state": "OH", "postal_code": "44144", "latitude": 41.4270364873, "longitude": -81.7353828119, "stars": 3.0, "review_count": 5, "is_open": 1, "attributes": {"BusinessAcceptsCreditCards": "True"}, "categories": "Shipping Centers, Notaries, Local Services, Mailbox Centers, Printing Services", "hours": {"Monday": "0:0-0:0", "Tuesday": "8:30-19:0", "Wednesday": "8:30-19:0", "Thursday": "8:30-19:0", "Friday": "8:30-19:0", "Saturday": "9:0-15:0"}}
{"business_id": "NNvymEK39Unys8GWm9SXQQ", "name": "Karen's Hallmark Shop", "address": "4776 Ridge Rd", "city": "Brooklyn", "state": "OH", "postal_code": "44144", "latitude": 41.4268437, "longitude": -81.7367318, "stars": 3.0, "review_count": 4, "is_open": 1, "attributes": {"BusinessParking": "{'garage': False, 'street': False, 'validated': False, 'lot': False, 'valet': False}", "BikeParking": "True", "BusinessAcceptsCreditCards": "True", "RestaurantsPriceRange2": "3"}, "categories": "Shopping, Cards & Stationery, Arts & Crafts, Event Planning & Services, Flowers & Gifts, Gift Shops", "hours": {"Monday": "10:0-21:0", "Tuesday": "10:0-21:0", "Wednesday": "10:0-21:0", "Thursday": "10:0-21:0", "Friday": "10:0-21:0", "Saturday": "10:0-21:0", "Sunday": "11:0-17:0"}}
{"business_id": "_OYTBDkX3recU9siG8CUNQ", "name": "Mom's Pierogies", "address": "", "city": "Brooklyn", "state": "OH", "postal_code": "44144", "latitude": 41.434595, "longitude": -81.7458845, "stars": 3.5, "review_count": 3, "is_open": 1, "attributes": {"BusinessAcceptsCreditCards": "True", "BikeParking": "True", "BusinessParking": "{'garage': False, 'street': False, 'validated': False, 'lot': True, 'valet': False}", "RestaurantsTakeOut": "True", "WheelchairAccessible": "True", "Caters": "False"}, "categories": "Ethnic Food, Specialty Food, Food, Food Delivery Services, Ice Cream & Frozen Yogurt, Polish, Restaurants", "hours": {"Monday": "0:0-0:0", "Tuesday": "11:0-19:0", "Wednesday": "11:0-19:0", "Thursday": "11:0-17:0", "Friday": "11:0-19:0", "Saturday": "11:0-16:0"}}
{"business_id": "JC-8I-jD2FUaFc3512dVcQ", "name": "Cracker Barrel Old Country Store", "address": "5100 Tiedeman Rd", "city": "Brooklyn", "state": "OH", "postal_code": "44144", "latitude": 41.422525, "longitude": -81.760671, "stars": 3.0, "review_count": 50, "is_open": 1, "attributes": {"BikeParking": "False", "BusinessParking": "{'garage': False, 'street': False, 'validated': False, 'lot': True, 'valet': False}", "OutdoorSeating": "False", "RestaurantsDelivery": "False", "RestaurantsTableService": "True", "HasTV": "False", "Alcohol": "u'none'", "RestaurantsAttire": "u'casual'", "BusinessAcceptsCreditCards": "True", "RestaurantsPriceRange2": "1", "GoodForKids": "True", "RestaurantsTakeOut": "True", "NoiseLevel": "u'average'", "Caters": "True", "RestaurantsGoodForGroups": "True", "RestaurantsReservations": "False", "Ambience": "{'romantic': False, 'intimate': False, 'touristy': False, 'hipster': False, 'divey': False, 'classy': False, 'trendy': False, 'upscale': False, 'casual': True}", "GoodForMeal": "{'dessert': False, 'latenight': False, 'lunch': True, 'dinner': True, 'brunch': True, 'breakfast': True}", "WiFi": "'no'"}, "categories": "Restaurants, Comfort Food, American (New), American (Traditional), Southern, Event Planning & Services, Caterers, Breakfast & Brunch", "hours": {"Monday": "6:0-22:0", "Tuesday": "6:0-22:0", "Wednesday": "6:0-22:0", "Thursday": "6:0-22:0", "Friday": "6:0-23:0", "Saturday": "6:0-23:0", "Sunday": "6:0-22:0"}}
{"business_id": "ErXO17d8gWv3WibTagAWkQ", "name": "Messner Landscape", "address": "325 County Rd Mm", "city": "Brooklyn", "state": "WI", "postal_code": "53521", "latitude": 42.8721349, "longitude": -89.3691029, "stars": 2.5, "review_count": 3, "is_open": 1, "attributes": {"BusinessAcceptsCreditCards": "True", "BusinessAcceptsBitcoin": "False"}, "categories": "Local Services, Snow Removal, Landscaping, Tree Services, Home Services", "hours": {"Monday": "7:0-17:0", "Tuesday": "7:0-17:0", "Wednesday": "7:0-17:0", "Thursday": "7:0-17:0", "Friday": "7:0-17:0"}}
{"business_id": "MMSRHGIZg_xD7k6Fx8dxdA", "name": "AAA Seamless Gutters", "address": "176 N Union Rd", "city": "Brooklyn", "state": "WI", "postal_code": "53521", "latitude": 42.8555975, "longitude": -89.3044014, "stars": 2.5, "review_count": 3, "is_open": 1, "attributes": {"RestaurantsPriceRange2": "2", "BusinessAcceptsCreditCards": "False"}, "categories": "Contractors, Building Supplies, Gutter Services, Home & Garden, Hardware Stores, Home Services, Shopping", "hours": {"Monday": "7:0-18:0", "Tuesday": "7:0-18:0", "Wednesday": "7:0-18:0", "Thursday": "7:0-18:0", "Friday": "7:0-18:0"}}
{"business_id": "fkXwJHETFfJUc-gu-pyeLw", "name": "Chipotle Mexican Grill", "address": "10325 Cascade Crossing", "city": "Brooklyn", "state": "OH", "postal_code": "44144", "latitude": 41.423096, "longitude": -81.7593324, "stars": 2.5, "review_count": 42, "is_open": 1, "attributes": {"BusinessAcceptsCreditCards": "True", "BikeParking": "True", "OutdoorSeating": "True", "Alcohol": "u'beer_and_wine'", "WiFi": "'no'", "GoodForKids": "True", "HasTV": "False", "Caters": "True", "NoiseLevel": "u'loud'", "RestaurantsReservations": "False", "RestaurantsPriceRange2": "1", "RestaurantsDelivery": "False", "RestaurantsGoodForGroups": "True", "RestaurantsTakeOut": "True", "BusinessParking": "{'garage': False, 'street': False, 'validated': False, 'lot': True, 'valet': False}", "GoodForMeal": "{'dessert': False, 'latenight': False, 'lunch': True, 'dinner': False, 'brunch': False, 'breakfast': False}", "RestaurantsAttire": "u'casual'", "Ambience": "{'romantic': False, 'intimate': False, 'classy': False, 'hipster': False, 'divey': False, 'touristy': False, 'trendy': False, 'upscale': False, 'casual': True}"}, "categories": "Mexican, Restaurants, Fast Food", "hours": {"Monday": "10:45-23:0", "Tuesday": "10:45-23:0", "Wednesday": "10:45-23:0", "Thursday": "10:45-23:0", "Friday": "10:45-23:0", "Saturday": "10:45-23:0", "Sunday": "10:45-23:0"}}
{"business_id": "Jjzsf_PC1EOFj9zoMI8NJw", "name": "Ice House Tavern and Grill", "address": "10036 Brookpark Rd", "city": "Brooklyn", "state": "OH", "postal_code": "44130", "latitude": 41.4188274, "longitude": -81.7583945, "stars": 3.5, "review_count": 28, "is_open": 1, "attributes": {"BusinessAcceptsCreditCards": "True", "OutdoorSeating": "True", "RestaurantsReservations": "False", "HasTV": "True", "RestaurantsGoodForGroups": "True", "WiFi": "'free'", "NoiseLevel": "'average'", "Ambience": "{'romantic': False, 'intimate': False, 'classy': False, 'hipster': False, 'divey': False, 'touristy': False, 'trendy': False, 'upscale': False, 'casual': False}", "RestaurantsPriceRange2": "1", "RestaurantsAttire": "'casual'", "BikeParking": "True", "RestaurantsDelivery": "False", "BusinessParking": "{'garage': False, 'street': False, 'validated': False, 'lot': False, 'valet': False}", "RestaurantsTakeOut": "True", "GoodForKids": "True", "Alcohol": "'full_bar'", "GoodForMeal": "{'dessert': False, 'latenight': False, 'lunch': False, 'dinner': False, 'brunch': False, 'breakfast': False}", "GoodForDancing": "False", "HappyHour": "True"}, "categories": "Beer Bar, Bars, Restaurants, Sports Bars, Dive Bars, American (Traditional), Nightlife", "hours": {"Monday": "10:0-2:30", "Tuesday": "10:0-2:30", "Wednesday": "10:0-2:30", "Thursday": "10:0-2:30", "Friday": "10:0-2:30", "Saturday": "10:0-2:30", "Sunday": "10:0-2:30"}}
{"business_id": "gkOVP6XDVlpul1uBBF_KlQ", "name": "Giant Eagle", "address": "6300 Biddulph Rd", "city": "Brooklyn", "state": "OH", "postal_code": "44144", "latitude": 41.43174, "longitude": -81.7299832, "stars": 2.5, "review_count": 10, "is_open": 1, "attributes": {"BikeParking": "True", "BusinessAcceptsCreditCards": "True", "BusinessParking": "{'garage': False, 'street': False, 'validated': False, 'lot': True, 'valet': False}", "RestaurantsPriceRange2": "2"}, "categories": "Drugstores, Shopping, Grocery, Food", "hours": null}
{"business_id": "l0Ha_6cUewXN9OAK0Xdk_Q", "name": "Perkins Restaurant & Bakery", "address": "5180 Tiedeman Rd", "city": "Brooklyn", "state": "OH", "postal_code": "44144", "latitude": 41.4198353247, "longitude": -81.7590107024, "stars": 3.0, "review_count": 8, "is_open": 0, "attributes": {"WiFi": "'no'", "BikeParking": "True", "RestaurantsTakeOut": "True", "RestaurantsReservations": "False", "OutdoorSeating": "False", "GoodForKids": "True", "Alcohol": "'none'", "BusinessAcceptsCreditCards": "True", "RestaurantsDelivery": "False", "RestaurantsPriceRange2": "2", "Ambience": "{'touristy': False, 'hipster': False, 'romantic': False, 'divey': False, 'intimate': False, 'trendy': False, 'upscale': False, 'classy': False, 'casual': False}", "RestaurantsGoodForGroups": "True", "HasTV": "False", "RestaurantsAttire": "'casual'", "BusinessParking": "{'garage': False, 'street': False, 'validated': False, 'lot': False, 'valet': False}"}, "categories": "Restaurants, Breakfast & Brunch, American (Traditional), Food, Cafes, Bakeries", "hours": {"Monday": "6:0-22:0", "Tuesday": "6:0-22:0", "Wednesday": "6:0-22:0", "Thursday": "6:0-22:0", "Friday": "6:0-22:0", "Saturday": "6:0-22:0", "Sunday": "6:0-22:0"}}
{"business_id": "C8o6Wi1NoF0mCCT8Ry4kAQ", "name": "Wingstop", "address": "7317 Northcliff Ave", "city": "Brooklyn", "state": "OH", "postal_code": "44144", "latitude": 41.4246283, "longitude": -81.7357127, "stars": 2.0, "review_count": 9, "is_open": 1, "attributes": {"Ambience": "{'touristy': False, 'hipster': False, 'romantic': False, 'divey': False, 'intimate': False, 'trendy': False, 'upscale': False, 'classy': False, 'casual': False}", "Alcohol": "'none'", "RestaurantsDelivery": "False", "BusinessParking": "{'garage': False, 'street': False, 'validated': False, 'lot': False, 'valet': False}", "RestaurantsTakeOut": "True", "RestaurantsReservations": "False", "GoodForMeal": "{'dessert': False, 'latenight': False, 'lunch': False, 'dinner': False, 'brunch': False, 'breakfast': False}"}, "categories": "Chicken Wings, Restaurants", "hours": {"Monday": "11:0-0:0", "Tuesday": "11:0-0:0", "Wednesday": "11:0-0:0", "Thursday": "11:0-0:0", "Friday": "11:0-0:0", "Saturday": "11:0-0:0", "Sunday": "11:0-0:0"}}
{"business_id": "fzPwuU8295tpDUyCFaIGxw", "name": "Carrabba's Italian Grill", "address": "5030 Tiedeman Rd", "city": "Brooklyn", "state": "OH", "postal_code": "44144", "latitude": 41.4241528, "longitude": -81.7611414, "stars": 3.5, "review_count": 64, "is_open": 1, "attributes": {"GoodForMeal": "{'dessert': True, 'latenight': False, 'lunch': False, 'dinner': True, 'brunch': False, 'breakfast': False}", "Caters": "True", "BusinessAcceptsCreditCards": "True", "BusinessParking": "{'garage': False, 'street': False, 'validated': False, 'lot': True, 'valet': False}", "RestaurantsReservations": "True", "BikeParking": "True", "Alcohol": "u'full_bar'", "RestaurantsGoodForGroups": "True", "RestaurantsPriceRange2": "2", "NoiseLevel": "u'average'", "HasTV": "True", "RestaurantsDelivery": "False", "RestaurantsAttire": "u'casual'", "Ambience": "{'romantic': False, 'intimate': False, 'classy': False, 'hipster': False, 'divey': False, 'touristy': False, 'trendy': False, 'upscale': False, 'casual': True}", "WiFi": "'no'", "RestaurantsTableService": "True", "RestaurantsTakeOut": "True", "GoodForKids": "True", "OutdoorSeating": "False"}, "categories": "Italian, Seafood, Restaurants", "hours": {"Monday": "11:0-22:0", "Tuesday": "11:0-22:0", "Wednesday": "11:0-22:0", "Thursday": "11:0-22:0", "Friday": "11:0-23:0", "Saturday": "11:0-23:0", "Sunday": "11:0-21:0"}}
{"business_id": "SgumtIcymjfQEMcS_AK8NA", "name": "Cleveland Furniture Bank", "address": "6610 Biddulph Rd", "city": "Brooklyn", "state": "OH", "postal_code": "44144", "latitude": 41.431659, "longitude": -81.731044, "stars": 3.0, "review_count": 4, "is_open": 0, "attributes": {"BusinessParking": "{'garage': False, 'street': False, 'validated': False, 'lot': False, 'valet': False}", "RestaurantsPriceRange2": "1", "BusinessAcceptsCreditCards": "True"}, "categories": "Home & Garden, Shopping, Thrift Stores, Appliances, Furniture Stores", "hours": {"Monday": "9:0-20:0", "Tuesday": "9:0-20:0", "Wednesday": "9:0-20:0", "Thursday": "9:0-20:0", "Friday": "9:0-20:0", "Saturday": "9:0-19:0"}}
{"business_id": "nfUdE7FHuRNGsRw0hmEqtQ", "name": "Angelos", "address": "233 Douglas Dr", "city": "Brooklyn", "state": "WI", "postal_code": "53521", "latitude": 42.8591289087, "longitude": -89.3696688116, "stars": 3.5, "review_count": 4, "is_open": 0, "attributes": null, "categories": "Italian, Restaurants", "hours": null}
{"business_id": "HJIO1moSP5MWu6TRVla8cA", "name": "Sam's Club", "address": "10250 Brookpark Rd.", "city": "Brooklyn", "state": "OH", "postal_code": "44130", "latitude": 41.42037, "longitude": -81.757353, "stars": 3.5, "review_count": 14, "is_open": 1, "attributes": {"ByAppointmentOnly": "False", "RestaurantsPriceRange2": "2", "BusinessAcceptsCreditCards": "True", "BusinessParking": "{'garage': False, 'street': False, 'validated': False, 'lot': True, 'valet': False}", "BikeParking": "False"}, "categories": "Health & Medical, Shopping, Grocery, Food, Fashion, Department Stores, Wholesale Stores", "hours": {"Monday": "7:0-20:30", "Tuesday": "7:0-20:30", "Wednesday": "7:0-20:30", "Thursday": "7:0-20:30", "Friday": "7:0-20:30", "Saturday": "7:0-20:30", "Sunday": "10:0-18:0"}}
{"business_id": "hQH8HuPlutFC_L90cEt_-w", "name": "Sheetz", "address": "10315 Cascade Crossing", "city": "Brooklyn", "state": "OH", "postal_code": "44144", "latitude": 41.422661415, "longitude": -81.7586828136, "stars": 4.0, "review_count": 10, "is_open": 1, "attributes": {"RestaurantsTakeOut": "True", "RestaurantsPriceRange2": "1", "BikeParking": "True", "BusinessAcceptsCreditCards": "True", "BusinessParking": "{'garage': False, 'street': False, 'validated': False, 'lot': True, 'valet': False}"}, "categories": "Gas Stations, Automotive, Food, Convenience Stores", "hours": {"Monday": "0:0-0:0", "Tuesday": "0:0-0:0", "Wednesday": "0:0-0:0", "Thursday": "0:0-0:0", "Friday": "0:0-0:0", "Saturday": "0:0-0:0", "Sunday": "0:0-0:0"}}
{"business_id": "DcLdC--ZeKmBg2Dpe4dkjw", "name": "New Orleans Showboat", "address": "10310 Cascade Crossing", "city": "Brooklyn", "state": "OH", "postal_code": "44144", "latitude": 41.4248679, "longitude": -81.758466, "stars": 2.0, "review_count": 3, "is_open": 0, "attributes": {"RestaurantsPriceRange2": "2", "RestaurantsReservations": "True", "BusinessAcceptsCreditCards": "True", "RestaurantsGoodForGroups": "True", "RestaurantsTakeOut": "True", "RestaurantsDelivery": "False", "BusinessParking": "{'garage': False, 'street': False, 'validated': False, 'lot': True, 'valet': False}", "Alcohol": "u'beer_and_wine'", "RestaurantsAttire": "u'casual'", "GoodForKids": "True", "OutdoorSeating": "True"}, "categories": "Restaurants, Cajun/Creole", "hours": null}
{"business_id": "-g98HHGe2FH-oOCQAasBzw", "name": "Allure House Of Beauty", "address": "7155-7267 Biddulph Rd", "city": "Brooklyn", "state": "OH", "postal_code": "44144", "latitude": 41.430282, "longitude": -81.7361613, "stars": 1.5, "review_count": 4, "is_open": 1, "attributes": {"BusinessParking": "{'garage': False, 'street': False, 'validated': False, 'lot': False, 'valet': False}", "GoodForKids": "False", "ByAppointmentOnly": "False", "BusinessAcceptsCreditCards": "True", "RestaurantsPriceRange2": "2", "BikeParking": "False"}, "categories": "Nail Salons, Beauty & Spas, Hair Salons, Hair Removal", "hours": null}
{"business_id": "kJKT12GTi5rQ4YTkzAaIDg", "name": "Buffalo Wild Wings", "address": "5020 Tiedeman Rd", "city": "Brooklyn", "state": "OH", "postal_code": "44144", "latitude": 41.4246215781, "longitude": -81.7616542, "stars": 3.0, "review_count": 35, "is_open": 1, "attributes": {"GoodForMeal": "{'dessert': False, 'latenight': False, 'lunch': False, 'dinner': False, 'brunch': False, 'breakfast': False}", "Caters": "False", "OutdoorSeating": "False", "NoiseLevel": "u'very_loud'", "HappyHour": "True", "Music": "{'dj': False}", "Alcohol": "'full_bar'", "BusinessAcceptsCreditCards": "True", "BusinessParking": "{'garage': False, 'street': False, 'validated': False, 'lot': True, 'valet': False}", "RestaurantsReservations": "False", "RestaurantsAttire": "'casual'", "RestaurantsPriceRange2": "2", "BikeParking": "True", "RestaurantsDelivery": "False", "CoatCheck": "False", "BestNights": "{'monday': False, 'tuesday': False, 'friday': False, 'wednesday': False, 'thursday': False, 'sunday': False, 'saturday': True}", "HasTV": "True", "RestaurantsTableService": "True", "RestaurantsGoodForGroups": "True", "WiFi": "'free'", "GoodForDancing": "False", "GoodForKids": "True", "RestaurantsTakeOut": "True", "Ambience": "{'touristy': False, 'hipster': False, 'romantic': False, 'divey': False, 'intimate': False, 'trendy': True, 'upscale': False, 'classy': False, 'casual': True}"}, "categories": "American (New), Food, Chicken Wings, Beer, Wine & Spirits, Nightlife, American (Traditional), Sports Bars, Restaurants, Bars", "hours": {"Monday": "11:0-0:0", "Tuesday": "11:0-0:0", "Wednesday": "11:0-0:0", "Thursday": "11:0-0:0", "Friday": "11:0-1:0", "Saturday": "11:0-1:0", "Sunday": "11:0-0:0"}}
{"business_id": "EAKw8-okLnWQxSIdTyjZdQ", "name": "Aldi", "address": "5170 Tiedeman Rd", "city": "Brooklyn", "state": "OH", "postal_code": "44144", "latitude": 41.4191771102, "longitude": -81.7581218854, "stars": 4.5, "review_count": 4, "is_open": 1, "attributes": {"BusinessAcceptsCreditCards": "True", "RestaurantsPriceRange2": "1", "Caters": "False", "BusinessParking": "{'garage': False, 'street': False, 'validated': False, 'lot': True, 'valet': False}", "RestaurantsTakeOut": "False", "BikeParking": "False"}, "categories": "Ethnic Food, Food, Beer, Wine & Spirits, Imported Food, Grocery, Specialty Food", "hours": {"Monday": "9:0-20:0", "Tuesday": "9:0-20:0", "Wednesday": "9:0-20:0", "Thursday": "9:0-20:0", "Friday": "9:0-20:0", "Saturday": "9:0-20:0", "Sunday": "9:0-19:0"}}
{"business_id": "Y46qmlks-TjEtJDXnUMsxw", "name": "El Tolteca Mexican Grill", "address": "7106 Biddulph Rd", "city": "Brooklyn", "state": "OH", "postal_code": "44144", "latitude": 41.431247, "longitude": -81.733837, "stars": 3.5, "review_count": 41, "is_open": 0, "attributes": {"BikeParking": "True", "RestaurantsGoodForGroups": "True", "NoiseLevel": "u'average'", "RestaurantsAttire": "u'casual'", "RestaurantsDelivery": "False", "BusinessParking": "{'garage': False, 'street': False, 'validated': False, 'lot': True, 'valet': False}", "OutdoorSeating": "True", "GoodForKids": "True", "BusinessAcceptsCreditCards": "True", "Alcohol": "u'full_bar'", "Ambience": "{'romantic': False, 'intimate': False, 'touristy': False, 'hipster': False, 'divey': False, 'classy': False, 'trendy': False, 'upscale': False, 'casual': True}", "RestaurantsPriceRange2": "1", "RestaurantsReservations": "True", "RestaurantsTakeOut": "True", "HasTV": "True"}, "categories": "Restaurants, Mexican", "hours": {"Monday": "11:0-22:0", "Tuesday": "11:0-22:0", "Wednesday": "11:0-22:0", "Thursday": "11:0-22:0", "Friday": "11:0-22:30", "Saturday": "12:0-22:30", "Sunday": "12:0-21:0"}}
{"business_id": "B3_C4v3tTOzKRx1-bMJlzw", "name": "GoWireless Verizon Authorized Retailer", "address": "4770 Ridge Rd", "city": "Brooklyn", "state": "OH", "postal_code": "44144", "latitude": 41.4269644678, "longitude": -81.7362105055, "stars": 4.0, "review_count": 4, "is_open": 0, "attributes": {"BusinessParking": "{'garage': False, 'street': False, 'validated': False, 'lot': False, 'valet': False}", "RestaurantsPriceRange2": "2", "BikeParking": "True", "BusinessAcceptsCreditCards": "True"}, "categories": "Shopping, Electronics, Mobile Phones", "hours": {"Monday": "10:0-20:0", "Tuesday": "10:0-20:0", "Wednesday": "10:0-20:0", "Thursday": "10:0-20:0", "Friday": "10:0-20:0", "Saturday": "10:0-20:0", "Sunday": "11:0-19:0"}}
